{"type": "FeatureCollection", "crs": {"type": "name", "properties": {"name": "urn:ogc:def:crs:OGC:1.3:CRS84"}}, "features": [{"type": "Feature", "geometry": {"type": "Point", "coordinates": [9.423256, 54.810072]}, "properties": {"district": "1", "name": "Altes Gymnasium (Neubau)", "address": "Apenrader Str. 164", "postal_code": "24939", "city": "Flensburg"}}, {"type": "Feature", "geometry": {"type": "Point", "coordinates": [9.419291, 54.803973]}, "properties": {"district": "3", "name": "Comenius-Schule", "address": "Alter Kupfermühlenweg 15", "postal_code": "24939", "city": "Flensburg"}}, {"type": "Feature", "geometry": {"type": "Point", "coordinates": [9.423809, 54.796213]}, "properties": {"district": "5", "name": "Cornelius Hansen-Skolen 2", "address": "Jens-Due-Weg 2", "postal_code": "24939", "city": "Flensburg"}}, {"type": "Feature", "geometry": {"type": "Point", "coordinates": [9.416957, 54.794401]}, "properties": {"district": "7", "name": "Dänische Schule Weiche 2", "address": "Waldstraße 44", "postal_code": "24939", "city": "Flensburg"}}, {"type": "Feature", "geometry": {"type": "Point", "coordinates": [9.431051, 54.792599]}, "properties": {"district": "9", "name": "Die Mürwiker 2 (Werkstatt Treeneweg)", "address": "Norderstraße 58", "postal_code": "24939", "city": "Flensburg"}}, {"type": "Feature", "geometry": {"type": "Point", "coordinates": [9.416925, 54.794413]}, "properties": {"district": "11", "name": "Falkenbergschule 1", "address": "Waldstraße 44", "postal_code": "24939", "city": "Flensburg"}}, {"type": "Feature", "geometry": {"type": "Point", "coordinates": [9.420956, 54.782975]}, "properties": {"district": "13", "name": "Fördegymnasium 1", "address": "Marienallee 5", "postal_code": "24937", "city": "Flensburg"}}, {"type": "Feature", "geometry": {"type": "Point", "coordinates": [9.410506, 54.782661]}, "properties": {"district": "15", "name": "Gemeindehaus/Begegnungsstätte St. Jürgen", "address": "Emil-Nolde-Straße 31", "postal_code": "24937", "city": "Flensburg"}}, {"type": "Feature", "geometry": {"type": "Point", "coordinates": [9.395078, 54.761173]}, "properties": {"district": "17", "name": "Gesundheitshaus 1", "address": "Alter Husumer Weg 207", "postal_code": "24941", "city": "Flensburg"}}, {"type": "Feature", "geometry": {"type": "Point", "coordinates": [9.428754, 54.772749]}, "properties": {"district": "19", "name": "Goetheschule Haus 1", "address": "Lundweg 30", "postal_code": "24941", "city": "Flensburg"}}, {"type": "Feature", "geometry": {"type": "Point", "coordinates": [9.430474, 54.780141]}, "properties": {"district": "21", "name": "Heilandskapelle", "address": "Schützenkuhle 22", "postal_code": "24937", "city": "Flensburg"}}, {"type": "Feature", "geometry": {"type": "Point", "coordinates": [9.445554, 54.778584]}, "properties": {"district": "23", "name": "Jörgensby-Skolen", "address": "Schulze-Delitzsch-Straße 2", "postal_code": "24943", "city": "Flensburg"}}, {"type": "Feature", "geometry": {"type": "Point", "coordinates": [9.44288, 54.786564]}, "properties": {"district": "25", "name": "Kindertagesstätte Neustadt", "address": "Bismarckstraße 41", "postal_code": "24943", "city": "Flensburg"}}, {"type": "Feature", "geometry": {"type": "Point", "coordinates": [9.442546, 54.79117]}, "properties": {"district": "27", "name": "Regionales Berufsbildungszentrum HLA", "address": "Jürgensgaarder Str. 1", "postal_code": "24943", "city": "Flensburg"}}, {"type": "Feature", "geometry": {"type": "Point", "coordinates": [9.466413, 54.781677]}, "properties": {"district": "29", "name": "Schule Adelby 2", "address": "Ringstraße 1", "postal_code": "24943", "city": "Flensburg"}}, {"type": "Feature", "geometry": {"type": "Point", "coordinates": [9.476306, 54.781677]}, "properties": {"district": "31", "name": "Schule Auf der Rude 2", "address": "Taruper Hauptstraße 53", "postal_code": "24943", "city": "Flensburg"}}, {"type": "Feature", "geometry": {"type": "Point", "coordinates": [9.474201, 54.792171]}, "properties": {"district": "33", "name": "Schule Engelsby 2", "address": "Brahmsstraße 2-4", "postal_code": "24943", "city": "Flensburg"}}, {"type": "Feature", "geometry": {"type": "Point", "coordinates": [9.458586, 54.793796]}, "properties": {"district": "35", "name": "Schule Engelsby 4", "address": "Bohlberg 56-58", "postal_code": "24943", "city": "Flensburg"}}, {"type": "Feature", "geometry": {"type": "Point", "coordinates": [9.465154, 54.802305]}, "properties": {"district": "37", "name": "Schule Friedheim 2", "address": "Elbestraße 10", "postal_code": "24943", "city": "Flensburg"}}, {"type": "Feature", "geometry": {"type": "Point", "coordinates": [9.474244, 54.792221]}, "properties": {"district": "39", "name": "Schule Friedheim 4", "address": "Brahmsstraße 2-4", "postal_code": "24943", "city": "Flensburg"}}, {"type": "Feature", "geometry": {"type": "Point", "coordinates": [9.477998, 54.811982]}, "properties": {"district": "41", "name": "Taruphus", "address": "Marrenshof 1", "postal_code": "24944", "city": "Flensburg"}}, {"type": "Feature", "geometry": {"type": "Point", "coordinates": [9.478094, 54.812013]}, "properties": {"district": "43", "name": "Waldschule 2", "address": "Marrenshof 1", "postal_code": "24944", "city": "Flensburg"}}]}